{
    "features": [
        {
            "geometry": {
                "coordinates": [
                    -3.573771,
                    55.885024
                ],
                "type": "Point"
            },
            "properties": {
                "deaths": 4,
                "place": "West Lothian",
                "weight": 0.7
            },
            "type": "Feature"
        },
        {
            "geometry": {
                "coordinates": [
                    -2.96965,
                    56.477109
                ],
                "type": "Point"
            },
            "properties": {
                "deaths": 2,
                "place": "Dundee City",
                "weight": 0.7
            },
            "type": "Feature"
        },
        {
            "geometry": {
                "coordinates": [
                    -4.253114,
                    55.857879
                ],
                "type": "Point"
            },
            "properties": {
                "deaths": 2,
                "place": "Glasgow City",
                "weight": 0.7
            },
            "type": "Feature"
        },
        {
            "geometry": {
                "coordinates": [
                    -3.811036,
                    55.612833
                ],
                "type": "Point"
            },
            "properties": {
                "deaths": 2,
                "place": "South Lanarkshire",
                "weight": 0.7
            },
            "type": "Feature"
        },
        {
            "geometry": {
                "coordinates": [
                    -2.917728,
                    56.724178
                ],
                "type": "Point"
            },
            "properties": {
                "deaths": 1,
                "place": "Angus",
                "weight": 0.7
            },
            "type": "Feature"
        },
        {
            "geometry": {
                "coordinates": [
                    -3.288375,
                    55.926502
                ],
                "type": "Point"
            },
            "properties": {
                "deaths": 1,
                "place": "City of Edinburgh",
                "weight": 0.7
            },
            "type": "Feature"
        },
        {
            "geometry": {
                "coordinates": [
                    -3.7422,
                    56.150476
                ],
                "type": "Point"
            },
            "properties": {
                "deaths": 1,
                "place": "Clackmannanshire",
                "weight": 0.7
            },
            "type": "Feature"
        },
        {
            "geometry": {
                "coordinates": [
                    -2.720885,
                    55.941987
                ],
                "type": "Point"
            },
            "properties": {
                "deaths": 1,
                "place": "East Lothian",
                "weight": 0.7
            },
            "type": "Feature"
        },
        {
            "geometry": {
                "coordinates": [
                    -3.110378,
                    55.832216
                ],
                "type": "Point"
            },
            "properties": {
                "deaths": 1,
                "place": "Midlothian",
                "weight": 0.7
            },
            "type": "Feature"
        },
        {
            "geometry": {
                "coordinates": [
                    -4.542747,
                    55.847821
                ],
                "type": "Point"
            },
            "properties": {
                "deaths": 1,
                "place": "Renfrewshire",
                "weight": 0.7
            },
            "type": "Feature"
        },
        {
            "geometry": {
                "coordinates": [
                    -2.787718,
                    55.576476
                ],
                "type": "Point"
            },
            "properties": {
                "deaths": 1,
                "place": "Scottish Borders",
                "weight": 0.7
            },
            "type": "Feature"
        },
        {
            "geometry": {
                "coordinates": [
                    -4.517679,
                    55.984911
                ],
                "type": "Point"
            },
            "properties": {
                "deaths": 1,
                "place": "West Dunbartonshire",
                "weight": 0.7
            },
            "type": "Feature"
        }
    ],
    "type": "FeatureCollection"
}