{
    "features": [
        {
            "geometry": {
                "coordinates": [
                    -3.790649,
                    55.997334
                ],
                "type": "Point"
            },
            "properties": {
                "deaths": 2,
                "place": "Falkirk",
                "weight": 0.7
            },
            "type": "Feature"
        },
        {
            "geometry": {
                "coordinates": [
                    -2.173628,
                    57.155784
                ],
                "type": "Point"
            },
            "properties": {
                "deaths": 1,
                "place": "Aberdeen City",
                "weight": 0.7
            },
            "type": "Feature"
        },
        {
            "geometry": {
                "coordinates": [
                    -3.288375,
                    55.926502
                ],
                "type": "Point"
            },
            "properties": {
                "deaths": 1,
                "place": "City of Edinburgh",
                "weight": 0.7
            },
            "type": "Feature"
        },
        {
            "geometry": {
                "coordinates": [
                    -2.720885,
                    55.941987
                ],
                "type": "Point"
            },
            "properties": {
                "deaths": 1,
                "place": "East Lothian",
                "weight": 0.7
            },
            "type": "Feature"
        },
        {
            "geometry": {
                "coordinates": [
                    -3.948431,
                    55.874833
                ],
                "type": "Point"
            },
            "properties": {
                "deaths": 1,
                "place": "North Lanarkshire",
                "weight": 0.7
            },
            "type": "Feature"
        }
    ],
    "type": "FeatureCollection"
}